{
    "Records":

[
    {
        "id": 5028,
        "title": "شهدای هفتم تیر",
        "tel": null,
        "address": "تهران - مترو شهدای هفتم تیر",
        "latitude": "35.715294",
        "longitude": "51.426338",
        "publishDate": "10/23/2018 12:45:06 PM"
    },
    {
        "id": 5029,
        "title": "بهارستان",
        "tel": null,
        "address": "تهران - مترو بهارستان",
        "latitude": "35.691839",
        "longitude": "51.432809",
        "publishDate": "10/23/2018 12:51:00 PM"
    },
    {
        "id": 5030,
        "title": "امام حسین",
        "tel": null,
        "address": "تهران - مترو امام حسین",
        "latitude": "35.702282",
        "longitude": "51.445623",
        "publishDate": "10/23/2018 12:55:16 PM"
    },
    {
        "id": 5031,
        "title": "شادمان",
        "tel": null,
        "address": "تهران - مترو شادمان",
        "latitude": "35.700676",
        "longitude": "51.363650",
        "publishDate": "10/23/2018 12:59:07 PM"
    },
    {
        "id": 5032,
        "title": "تجریش",
        "tel": null,
        "address": "تهران - مترو تجریش",
        "latitude": "35.804645",
        "longitude": "51.433531",
        "publishDate": "10/23/2018 1:12:45 PM"
    },
    {
        "id": 5033,
        "title": "دکتر شریعتی",
        "tel": null,
        "address": "تهران - مترو دکتر شریعتی",
        "latitude": "35.762697",
        "longitude": "51.444232",
        "publishDate": "10/23/2018 1:04:57 PM"
    },
    {
        "id": 5034,
        "title": "شهید بهشتی",
        "tel": null,
        "address": "تهران - مترو شهید بهشتی",
        "latitude": "35.731032",
        "longitude": "51.427001",
        "publishDate": "10/23/2018 12:47:41 PM"
    },
    {
        "id": 5035,
        "title": "گلشهر",
        "tel": null,
        "address": "تهران - مترو گلشهر",
        "latitude": "35.824870",
        "longitude": "50.933063",
        "publishDate": "10/23/2018 1:03:48 PM"
    },
    {
        "id": 5036,
        "title": "شهید نواب صفوی",
        "tel": null,
        "address": "تهران - مترو نواب صفوی",
        "latitude": "35.694472",
        "longitude": "51.379281",
        "publishDate": "10/23/2018 1:00:45 PM"
    },
    {
        "id": 5037,
        "title": "صادقیه",
        "tel": null,
        "address": "تهران - مترو صادقیه",
        "latitude": "35.717577",
        "longitude": "51.330925",
        "publishDate": "10/23/2018 1:03:10 PM"
    },
    {
        "id": 5038,
        "title": "کرج",
        "tel": null,
        "address": "کرج - مترو کرج",
        "latitude": "35.787027",
        "longitude": "51.002601",
        "publishDate": "10/23/2018 1:02:21 PM"
    },
    {
        "id": 5041,
        "title": "نمایشگاه بین الملی تهران",
        "tel": null,
        "address": "تهران - نمایشگاه بین المللی",
        "latitude": "35.790369",
        "longitude": "51.399087",
        "publishDate": "10/24/2018 6:19:33 AM"
    },
    {
        "id": 5042,
        "title": "حرم حضرت عبدالعظیم حسنی",
        "tel": null,
        "address": "ری - جنب حرم حضرت عبدالعظیم حسنی",
        "latitude": "35.586577",
        "longitude": "51.436812",
        "publishDate": "10/24/2018 6:17:37 AM"
    },
    {
        "id": 5043,
        "title": "کوی دانشگاه",
        "tel": null,
        "address": "تهران - کوی دانشگاه تهران",
        "latitude": "35.730915",
        "longitude": "51.385833",
        "publishDate": "10/24/2018 6:15:11 AM"
    },
    {
        "id": 5044,
        "title": "مسجد جمکران",
        "tel": null,
        "address": "قم - مسجد جمکران",
        "latitude": "34.585847",
        "longitude": "50.915968",
        "publishDate": "10/24/2018 6:13:23 AM"
    },
    {
        "id": 5045,
        "title": "جنب حرم حضرت معصومه (ع )",
        "tel": null,
        "address": "قم - جنب حرم حضرت معصومه (ع)",
        "latitude": "34.642594",
        "longitude": "50.880005",
        "publishDate": "10/24/2018 6:12:05 AM"
    },
    {
        "id": 5578,
        "title": "ولی عصر",
        "tel": null,
        "address": "تهران - مترو میدان ولی عصر",
        "latitude": "35.712033",
        "longitude": "51.407721",
        "publishDate": "5/18/2019 10:20:32 AM"
    },
    {
        "id": 5579,
        "title": "امام خمینی",
        "tel": null,
        "address": "تهران - مترو امام خمینی",
        "latitude": "35.685545",
        "longitude": "51.419940",
        "publishDate": "5/18/2019 10:28:20 AM"
    },
    {
        "id": 5580,
        "title": "بهارستان",
        "tel": null,
        "address": "تهران - مترو بهارستان",
        "latitude": "35.691871",
        "longitude": "51.432789",
        "publishDate": "5/18/2019 10:32:08 AM"
    }
]

}